緯度,經度,交易價格,估值,估值_含社區調整,估值_含社區調整_含時間調整,誤差,交易年月日,房屋坪數,所在樓層,地址,縣市,行政區,社區名稱
25.0330,121.5654,20000000,21000000,21500000,22000000,5,2023-01-15,45.23,12,"台北市信義區文化路一段309號","台北市","信義區","信義帝寶"
24.1477,120.6736,15000000,16500000,16000000,16800000,10,2023-02-20,38.75,8,"台中市西區民生路二段123號","台中市","西區","台中之星"
22.6273,120.3014,18000000,17100000,17500000,17000000,-5,2023-03-10,52.84,14,"高雄市前金區中山路三段456號","高雄市","前金區","高雄翠堤"
24.8138,120.9675,25000000,28750000,29500000,28000000,15,2023-04-05,60.12,6,"新竹市東區光明路一段789號","新竹市","東區","新竹巨城"
22.9999,120.2269,22000000,20900000,21500000,21000000,-5,2023-05-12,42.56,10,"台南市中西區和平路二段101號","台南市","中西區","台南府城"
25.1276,121.7392,30000000,33000000,32000000,33500000,10,2023-06-18,75.30,18,"基隆市仁愛區忠孝路三段202號","基隆市","仁愛區","基隆海景"
24.9936,121.3010,27000000,24300000,25000000,24000000,-10,2023-07-22,55.45,15,"桃園市桃園區復興路四段303號","桃園市","桃園區","桃園星河"
