lat,lng,actualPrice,estimatedPrice,error,date,size,floor,address
25.0330,121.5654,20000000,21000000,5,2023-01-15,45.23,12,"台北市信義區文化路一段309號"
24.1477,120.6736,15000000,16500000,10,2023-02-20,38.75,8,"台中市西區民生路二段123號"
22.6273,120.3014,18000000,17100000,-5,2023-03-10,52.84,14,"高雄市前金區中山路三段456號"
24.8138,120.9675,25000000,28750000,15,2023-04-05,60.12,6,"新竹市東區光明路一段789號"
22.9999,120.2269,22000000,20900000,-5,2023-05-12,42.56,10,"台南市中西區和平路二段101號"
25.1276,121.7392,30000000,33000000,10,2023-06-18,75.30,18,"基隆市仁愛區忠孝路三段202號"
24.9936,121.3010,27000000,24300000,-10,2023-07-22,55.45,15,"桃園市桃園區復興路四段303號"
